$GPGGA,121218.999,5554.01123,N,03732.51810,E,1,15,00.7,200.3,M,14.5,M,,*66
$GPGGA,000000.000,0000.00000,N,00000.00000,E,0,00,,-18.0,M,17.9,M,,*68
$GPGGA,000000.000,0000.00000,N,00000.00000,E,0,00,,-18.0,M,17.9,M,,*68
$GPGGA,000000.000,0000.00000,N,00000.00000,E,0,00,,-18.0,M,17.9,M,,*68
$GPGGA,000000.000,0000.00000,N,00000.00000,E,0,00,,-18.0,M,17.9,M,,*68
$GPGGA,000000.000,0000.00000,N,00000.00000,E,0,00,,-18.0,M,17.9,M,,*68
$GPGGA,000000.000,0000.00000,N,00000.00000,E,0,00,,-18.0,M,17.9,M,,*68
$GPGGA,000000.000,0000.00000,N,00000.00000,E,0,00,,-18.0,M,17.9,M,,*68
$GPGGA,000000.000,0000.00000,N,00000.00000,E,0,00,,-18.0,M,17.9,M,,*68
$GPGGA,000000.000,0000.00000,N,00000.00000,E,0,00,,-18.0,M,17.9,M,,*68
$GPGGA,000000.000,0000.00000,N,00000.00000,E,0,00,,-18.0,M,17.9,M,,*68
$GPGGA,000000.000,0000.00000,N,00000.00000,E,0,00,,-18.0,M,17.9,M,,*68
$GPGGA,000000.000,0000.00000,N,00000.00000,E,0,00,,-18.0,M,17.9,M,,*68
$GPGGA,000000.000,0000.00000,N,00000.00000,E,0,00,,-18.0,M,17.9,M,,*68
$GPGGA,000000.000,0000.00000,N,00000.00000,E,0,00,,-18.0,M,17.9,M,,*68
$GPGGA,000000.000,0000.00000,N,00000.00000,E,0,00,,-18.0,M,17.9,M,,*68
$GPGGA,000000.000,0000.00000,N,00000.00000,E,0,00,,-18.0,M,17.9,M,,*68
$GPGGA,000000.000,0000.00000,N,00000.00000,E,0,00,,-18.0,M,17.9,M,,*68
$GPGGA,000000.000,0000.00000,N,00000.00000,E,0,00,,-18.0,M,17.9,M,,*68
$GPGGA,000000.000,0000.00000,N,00000.00000,E,0,00,,-18.0,M,17.9,M,,*68
$GPGGA,000000.000,0000.00000,N,00000.00000,E,0,00,,-18.0,M,17.9,M,,*68
$GPGGA,000000.000,0000.00000,N,00000.00000,E,0,00,,-18.0,M,17.9,M,,*68
$GPGGA,000000.000,0000.00000,N,00000.00000,E,0,00,,-18.0,M,17.9,M,,*68
$GPGGA,000000.000,0000.00000,N,00000.00000,E,0,00,,-18.0,M,17.9,M,,*68
$GPGGA,000000.000,0000.00000,N,00000.00000,E,0,00,,-18.0,M,17.9,M,,*68
$GPGGA,000000.000,0000.00000,N,00000.00000,E,0,00,,-18.0,M,17.9,M,,*68
$GPGGA,000000.000,0000.00000,N,00000.00000,E,0,00,,-18.0,M,17.9,M,,*68
$GPGGA,000000.000,0000.00000,N,00000.00000,E,0,00,,-18.0,M,17.9,M,,*68
$GPGGA,000000.000,0000.00000,N,00000.00000,E,0,00,,-18.0,M,17.9,M,,*68
$GPGGA,000000.000,0000.00000,N,00000.00000,E,0,00,,-18.0,M,17.9,M,,*68
$GPGGA,000000.000,0000.00000,N,00000.00000,E,0,00,,-18.0,M,17.9,M,,*68
$GPGGA,000000.000,0000.00000,N,00000.00000,E,0,00,,-18.0,M,17.9,M,,*68
$GPGGA,000000.000,0000.00000,N,00000.00000,E,0,00,,-18.0,M,17.9,M,,*68
$GPGGA,000000.000,0000.00000,N,00000.00000,E,0,00,,-18.0,M,17.9,M,,*68
$GPGGA,000000.000,0000.00000,N,00000.00000,E,0,00,,-18.0,M,17.9,M,,*68
$GPGGA,000000.000,0000.00000,N,00000.00000,E,0,00,,-18.0,M,17.9,M,,*68
$GPGGA,000000.000,0000.00000,N,00000.00000,E,0,00,,-18.0,M,17.9,M,,*68
$GPGGA,000000.000,0000.00000,N,00000.00000,E,0,00,,-18.0,M,17.9,M,,*68
$GPGGA,000000.000,0000.00000,N,00000.00000,E,0,00,,-18.0,M,17.9,M,,*68
$GPGGA,000000.000,0000.00000,N,00000.00000,E,0,00,,-18.0,M,17.9,M,,*68
$GPGGA,000000.000,0000.00000,N,00000.00000,E,0,00,,-18.0,M,17.9,M,,*68
$GPGGA,000000.000,0000.00000,N,00000.00000,E,0,00,,-18.0,M,17.9,M,,*68
$GPGGA,000000.000,0000.00000,N,00000.00000,E,0,00,,-18.0,M,17.9,M,,*68
$GPGGA,000000.000,0000.00000,N,00000.00000,E,0,00,,-18.0,M,17.9,M,,*68
$GPGGA,000000.000,0000.00000,N,00000.00000,E,0,00,,-18.0,M,17.9,M,,*68
$GPGGA,000000.000,0000.00000,N,00000.00000,E,0,00,,-18.0,M,17.9,M,,*68
$GPGGA,121308.999,5553.93387,N,03732.58639,E,1,03,03.5,-14.5,M,14.5,M,,*70
$GPGGA,121309.999,5553.93676,N,03732.58456,E,1,03,03.5,-14.5,M,14.5,M,,*71
$GPGGA,121310.999,5553.93702,N,03732.58426,E,1,03,03.4,-14.5,M,14.5,M,,*7D
$GPGGA,121311.999,5553.93727,N,03732.58405,E,1,03,03.4,-14.5,M,14.5,M,,*7A
$GPGGA,121312.999,5553.93740,N,03732.58401,E,1,03,03.4,-14.5,M,14.5,M,,*7C
$GPGGA,121313.999,5553.93747,N,03732.58403,E,1,03,03.4,-14.5,M,14.5,M,,*78
$GPGGA,121314.999,5553.93741,N,03732.58416,E,1,03,03.4,-14.5,M,14.5,M,,*7D
$GPGGA,121315.999,5553.93739,N,03732.58424,E,1,03,03.4,-14.5,M,14.5,M,,*72
$GPGGA,121316.999,5553.93743,N,03732.58426,E,1,03,03.4,-14.5,M,14.5,M,,*7E
$GPGGA,121317.999,5553.93747,N,03732.58425,E,1,03,03.4,-14.5,M,14.5,M,,*78
$GPGGA,121317.999,5553.93747,N,03732.58425,E,0,00,,-14.5,M,14.5,M,,*63
$GPGGA,121317.999,5553.93747,N,03732.58425,E,0,00,,-14.5,M,14.5,M,,*63
$GPGGA,121320.999,5554.00929,N,03732.51524,E,1,05,03.7,202.7,M,14.5,M,,*61
$GPGGA,121321.999,5554.00948,N,03732.51525,E,1,05,03.7,203.7,M,14.5,M,,*67
$GPGGA,121322.999,5554.00960,N,03732.51530,E,1,05,03.7,204.4,M,14.5,M,,*6E
$GPGGA,121323.999,5554.00970,N,03732.51533,E,1,05,03.7,205.0,M,14.5,M,,*68
$GPGGA,121324.999,5554.01153,N,03732.51591,E,1,06,03.6,215.2,M,14.5,M,,*6E
$GPGGA,121325.999,5554.01148,N,03732.51592,E,1,06,03.6,214.8,M,14.5,M,,*6D
$GPGGA,121326.999,5554.01147,N,03732.51591,E,1,06,03.6,214.7,M,14.5,M,,*6D
$GPGGA,121327.999,5554.01143,N,03732.51593,E,1,06,03.6,214.4,M,14.5,M,,*69
$GPGGA,121328.999,5554.01144,N,03732.51592,E,1,06,03.6,214.3,M,14.5,M,,*67
$GPGGA,121329.999,5554.01141,N,03732.51595,E,1,06,03.6,214.0,M,14.5,M,,*67
$GPGGA,121330.999,5554.01021,N,03732.51684,E,1,09,01.1,208.4,M,14.5,M,,*68
$GPGGA,121331.999,5554.00993,N,03732.51697,E,1,09,01.1,204.9,M,14.5,M,,*6B
$GPGGA,121332.999,5554.00998,N,03732.51702,E,1,09,01.1,203.8,M,14.5,M,,*68
$GPGGA,121333.999,5554.01002,N,03732.51706,E,1,09,01.1,203.0,M,14.5,M,,*6E
$GPGGA,121334.999,5554.01007,N,03732.51706,E,1,09,01.1,202.4,M,14.5,M,,*69
$GPGGA,121335.999,5554.01012,N,03732.51705,E,1,09,01.1,202.0,M,14.5,M,,*6B
$GPGGA,121336.999,5554.01017,N,03732.51702,E,1,09,01.1,201.7,M,14.5,M,,*6E
$GPGGA,121337.999,5554.01024,N,03732.51698,E,1,09,01.1,201.6,M,14.5,M,,*6C
$GPGGA,121338.999,5554.01019,N,03732.51692,E,1,11,00.8,201.2,M,14.5,M,,*62
$GPGGA,121339.999,5554.01018,N,03732.51685,E,1,11,00.8,201.0,M,14.5,M,,*66
$GPGGA,121340.999,5554.01017,N,03732.51680,E,1,11,00.8,200.9,M,14.5,M,,*6A
$GPGGA,121341.999,5554.01018,N,03732.51677,E,1,11,00.8,200.9,M,14.5,M,,*6C
$GPGGA,121342.999,5554.01020,N,03732.51673,E,1,11,00.8,201.0,M,14.5,M,,*68
$GPGGA,121343.999,5554.01024,N,03732.51670,E,1,11,00.8,201.0,M,14.5,M,,*6E
$GPGGA,121344.999,5554.01028,N,03732.51667,E,1,11,00.8,201.1,M,14.5,M,,*62
$GPGGA,121345.999,5554.01033,N,03732.51665,E,1,11,00.8,201.2,M,14.5,M,,*68
$GPGGA,121346.999,5554.01039,N,03732.51661,E,1,11,00.8,201.2,M,14.5,M,,*65
$GPGGA,121347.999,5554.01044,N,03732.51659,E,1,11,00.8,201.3,M,14.5,M,,*64
$GPGGA,121348.999,5554.01049,N,03732.51658,E,1,11,00.8,201.4,M,14.5,M,,*60
$GPGGA,121349.999,5554.01053,N,03732.51656,E,1,11,00.8,201.5,M,14.5,M,,*65
$GPGGA,121350.999,5554.01056,N,03732.51654,E,1,11,00.8,201.6,M,14.5,M,,*69
$GPGGA,121351.999,5554.01059,N,03732.51653,E,1,11,00.8,201.7,M,14.5,M,,*61
$GPGGA,121352.999,5554.01060,N,03732.51654,E,1,11,00.8,201.8,M,14.5,M,,*60
$GPGGA,121353.999,5554.01060,N,03732.51653,E,1,11,00.8,201.9,M,14.5,M,,*67
$GPGGA,121354.999,5554.01060,N,03732.51653,E,1,11,00.8,202.1,M,14.5,M,,*6B
$GPGGA,121355.999,5554.01060,N,03732.51653,E,1,11,00.8,202.2,M,14.5,M,,*69
$GPGGA,121356.999,5554.01061,N,03732.51653,E,1,11,00.8,202.3,M,14.5,M,,*6A
$GPGGA,121357.999,5554.01063,N,03732.51651,E,1,11,00.8,202.3,M,14.5,M,,*6B
$GPGGA,121358.999,5554.01064,N,03732.51650,E,1,11,00.8,202.4,M,14.5,M,,*65
$GPGGA,121359.999,5554.01066,N,03732.51649,E,1,11,00.8,202.4,M,14.5,M,,*6E
$GPGGA,121400.999,5554.01072,N,03732.51639,E,1,12,00.8,202.4,M,14.5,M,,*64
$GPGGA,121401.999,5554.01076,N,03732.51634,E,1,12,00.8,202.5,M,14.5,M,,*6D
$GPGGA,121402.999,5554.01080,N,03732.51629,E,1,12,00.8,202.5,M,14.5,M,,*6B
$GPGGA,121403.999,5554.01083,N,03732.51624,E,1,12,00.8,202.5,M,14.5,M,,*64
$GPGGA,121404.999,5554.01086,N,03732.51620,E,1,12,00.8,202.5,M,14.5,M,,*62
$GPGGA,121405.999,5554.01088,N,03732.51616,E,1,12,00.8,202.6,M,14.5,M,,*6B
$GPGGA,121406.999,5554.01090,N,03732.51615,E,1,12,00.8,202.6,M,14.5,M,,*62
$GPGGA,121407.999,5554.01091,N,03732.51613,E,1,12,00.8,202.6,M,14.5,M,,*64
$GPGGA,121408.999,5554.01092,N,03732.51612,E,1,12,00.8,202.5,M,14.5,M,,*6A
$GPGGA,121409.999,5554.01092,N,03732.51611,E,1,12,00.8,202.5,M,14.5,M,,*68
$GPGGA,121410.999,5554.01092,N,03732.51611,E,1,12,00.8,202.5,M,14.5,M,,*60
$GPGGA,121411.999,5554.01091,N,03732.51610,E,1,12,00.8,202.5,M,14.5,M,,*63
$GPGGA,121412.999,5554.01090,N,03732.51609,E,1,12,00.8,202.4,M,14.5,M,,*68
$GPGGA,121413.999,5554.01089,N,03732.51608,E,1,12,00.8,202.4,M,14.5,M,,*60
$GPGGA,121414.999,5554.01087,N,03732.51606,E,1,12,00.8,202.4,M,14.5,M,,*67
$GPGGA,121415.999,5554.01086,N,03732.51605,E,1,12,00.8,202.5,M,14.5,M,,*65
$GPGGA,121416.999,5554.01085,N,03732.51604,E,1,12,00.8,202.5,M,14.5,M,,*64
$GPGGA,121417.999,5554.01083,N,03732.51604,E,1,12,00.8,202.5,M,14.5,M,,*63
$GPGGA,121418.999,5554.01072,N,03732.51611,E,1,13,00.7,202.9,M,14.5,M,,*64
$GPGGA,121419.999,5554.01069,N,03732.51612,E,1,13,00.7,203.0,M,14.5,M,,*64
$GPGGA,121420.999,5554.01067,N,03732.51614,E,1,13,00.7,203.0,M,14.5,M,,*66
$GPGGA,121421.999,5554.01063,N,03732.51614,E,1,13,00.7,203.1,M,14.5,M,,*62
$GPGGA,121422.999,5554.01059,N,03732.51616,E,1,13,00.7,203.1,M,14.5,M,,*6A
$GPGGA,121423.999,5554.01057,N,03732.51617,E,1,13,00.7,203.1,M,14.5,M,,*64
$GPGGA,121424.999,5554.01054,N,03732.51617,E,1,13,00.7,203.1,M,14.5,M,,*60
$GPGGA,121425.999,5554.01055,N,03732.51616,E,1,13,00.7,203.0,M,14.5,M,,*60
$GPGGA,121426.999,5554.01054,N,03732.51615,E,1,13,00.7,202.9,M,14.5,M,,*69
$GPGGA,121427.999,5554.01053,N,03732.51613,E,1,13,00.7,202.8,M,14.5,M,,*68
$GPGGA,121428.999,5554.01053,N,03732.51612,E,1,13,00.7,202.7,M,14.5,M,,*69
$GPGGA,121429.999,5554.01052,N,03732.51610,E,1,13,00.7,202.6,M,14.5,M,,*6A
$GPGGA,121430.999,5554.01051,N,03732.51609,E,1,13,00.7,202.5,M,14.5,M,,*6A
$GPGGA,121431.999,5554.01048,N,03732.51609,E,1,13,00.7,202.6,M,14.5,M,,*60
$GPGGA,121432.999,5554.01045,N,03732.51608,E,1,13,00.7,202.6,M,14.5,M,,*6F
$GPGGA,121433.999,5554.01043,N,03732.51608,E,1,13,00.7,202.7,M,14.5,M,,*69
$GPGGA,121434.999,5554.01041,N,03732.51607,E,1,13,00.7,202.7,M,14.5,M,,*63
$GPGGA,121435.999,5554.01040,N,03732.51607,E,1,13,00.7,202.8,M,14.5,M,,*6C
$GPGGA,121436.999,5554.01042,N,03732.51605,E,1,13,00.7,202.6,M,14.5,M,,*61
$GPGGA,121437.999,5554.01043,N,03732.51604,E,1,13,00.7,202.6,M,14.5,M,,*60
$GPGGA,121438.999,5554.01044,N,03732.51606,E,1,15,00.7,202.4,M,14.5,M,,*6E
$GPGGA,121439.999,5554.01046,N,03732.51607,E,1,15,00.7,202.4,M,14.5,M,,*6C
$GPGGA,121440.999,5554.01047,N,03732.51609,E,1,15,00.7,202.3,M,14.5,M,,*6A
$GPGGA,121441.999,5554.01048,N,03732.51611,E,1,15,00.7,202.2,M,14.5,M,,*6C
$GPGGA,121442.999,5554.01048,N,03732.51613,E,1,15,00.7,202.2,M,14.5,M,,*6D
$GPGGA,121443.999,5554.01049,N,03732.51614,E,1,15,00.7,202.1,M,14.5,M,,*69
$GPGGA,121444.999,5554.01050,N,03732.51616,E,1,15,00.7,202.1,M,14.5,M,,*64
$GPGGA,121445.999,5554.01051,N,03732.51618,E,1,15,00.7,202.1,M,14.5,M,,*6A
$GPGGA,121446.999,5554.01052,N,03732.51620,E,1,15,00.7,202.1,M,14.5,M,,*61
$GPGGA,121447.999,5554.01053,N,03732.51621,E,1,15,00.7,202.1,M,14.5,M,,*60
$GPGGA,121448.999,5554.01055,N,03732.51621,E,1,15,00.7,202.1,M,14.5,M,,*69
$GPGGA,121449.999,5554.01056,N,03732.51622,E,1,15,00.7,202.1,M,14.5,M,,*68
$GPGGA,121450.999,5554.01056,N,03732.51621,E,1,15,00.7,202.1,M,14.5,M,,*63
$GPGGA,121451.999,5554.01057,N,03732.51621,E,1,15,00.7,202.1,M,14.5,M,,*63
$GPGGA,121452.999,5554.01057,N,03732.51621,E,1,15,00.7,202.1,M,14.5,M,,*60
$GPGGA,121453.999,5554.01058,N,03732.51620,E,1,15,00.7,202.1,M,14.5,M,,*6F
$GPGGA,121454.999,5554.01058,N,03732.51620,E,1,15,00.7,202.1,M,14.5,M,,*68
$GPGGA,121455.999,5554.01058,N,03732.51620,E,1,15,00.7,202.1,M,14.5,M,,*69
$GPGGA,121456.999,5554.01058,N,03732.51620,E,1,15,00.7,202.1,M,14.5,M,,*6A
$GPGGA,121457.999,5554.01059,N,03732.51620,E,1,15,00.7,202.1,M,14.5,M,,*6A
$GPGGA,121458.999,5554.01059,N,03732.51621,E,1,15,00.7,202.0,M,14.5,M,,*65
$GPGGA,121459.999,5554.01060,N,03732.51621,E,1,15,00.7,202.0,M,14.5,M,,*6E
$GPGGA,121500.999,5554.01032,N,03732.51585,E,1,17,00.6,202.8,M,14.5,M,,*62
$GPGGA,121501.999,5554.01038,N,03732.51591,E,1,17,00.6,202.6,M,14.5,M,,*62
$GPGGA,121502.999,5554.01043,N,03732.51595,E,1,17,00.6,202.4,M,14.5,M,,*6B
$GPGGA,121503.999,5554.01046,N,03732.51599,E,1,17,00.6,202.3,M,14.5,M,,*64
$GPGGA,121504.999,5554.01048,N,03732.51601,E,1,17,00.6,202.2,M,14.5,M,,*6E
$GPGGA,121505.999,5554.01050,N,03732.51602,E,1,17,00.6,202.1,M,14.5,M,,*66
$GPGGA,121506.999,5554.01052,N,03732.51604,E,1,17,00.6,202.1,M,14.5,M,,*61
$GPGGA,121507.999,5554.01053,N,03732.51605,E,1,17,00.6,202.0,M,14.5,M,,*61
$GPGGA,121508.999,5554.01055,N,03732.51606,E,1,17,00.6,202.0,M,14.5,M,,*6B
$GPGGA,121509.999,5554.01056,N,03732.51607,E,1,17,00.6,201.9,M,14.5,M,,*62
$GPGGA,121510.999,5554.01058,N,03732.51609,E,1,17,00.6,201.9,M,14.5,M,,*6A
$GPGGA,121511.999,5554.01060,N,03732.51610,E,1,17,00.6,201.8,M,14.5,M,,*69
$GPGGA,121512.999,5554.01062,N,03732.51611,E,1,17,00.6,201.8,M,14.5,M,,*69
$GPGGA,121513.999,5554.01063,N,03732.51611,E,1,17,00.6,201.8,M,14.5,M,,*69
$GPGGA,121514.999,5554.01064,N,03732.51613,E,1,17,00.6,201.7,M,14.5,M,,*64
$GPGGA,121515.999,5554.01066,N,03732.51613,E,1,17,00.6,201.7,M,14.5,M,,*67
$GPGGA,121516.999,5554.01067,N,03732.51614,E,1,17,00.6,201.7,M,14.5,M,,*62
$GPGGA,121517.999,5554.01067,N,03732.51615,E,1,17,00.6,201.7,M,14.5,M,,*62
$GPGGA,121518.999,5554.01068,N,03732.51615,E,1,17,00.6,201.7,M,14.5,M,,*62
$GPGGA,121519.999,5554.01068,N,03732.51616,E,1,17,00.6,201.7,M,14.5,M,,*60
$GPGGA,121520.999,5554.01068,N,03732.51617,E,1,17,00.6,201.7,M,14.5,M,,*6B
$GPGGA,121521.999,5554.01068,N,03732.51617,E,1,17,00.6,201.6,M,14.5,M,,*6B
$GPGGA,121522.999,5554.01067,N,03732.51618,E,1,17,00.6,201.6,M,14.5,M,,*68
$GPGGA,121523.999,5554.01067,N,03732.51618,E,1,17,00.6,201.6,M,14.5,M,,*69
$GPGGA,121524.999,5554.01064,N,03732.51614,E,1,18,00.6,201.6,M,14.5,M,,*6E
$GPGGA,121525.999,5554.01063,N,03732.51615,E,1,18,00.6,201.6,M,14.5,M,,*69
$GPGGA,121526.999,5554.01063,N,03732.51618,E,1,18,00.6,201.6,M,14.5,M,,*67
$GPGGA,121527.999,5554.01062,N,03732.51619,E,1,18,00.6,201.6,M,14.5,M,,*66
$GPGGA,121528.999,5554.01061,N,03732.51621,E,1,18,00.6,201.5,M,14.5,M,,*62
$GPGGA,121529.999,5554.01061,N,03732.51623,E,1,18,00.6,201.5,M,14.5,M,,*61
$GPGGA,121530.999,5554.01061,N,03732.51625,E,1,18,00.6,201.5,M,14.5,M,,*6F
$GPGGA,121531.999,5554.01060,N,03732.51627,E,1,18,00.6,201.5,M,14.5,M,,*6D
$GPGGA,121532.999,5554.01060,N,03732.51629,E,1,18,00.6,201.5,M,14.5,M,,*60
$GPGGA,121533.999,5554.01060,N,03732.51631,E,1,18,00.6,201.4,M,14.5,M,,*69
$GPGGA,121534.999,5554.01060,N,03732.51634,E,1,18,00.6,201.4,M,14.5,M,,*6B
$GPGGA,121535.999,5554.01061,N,03732.51636,E,1,18,00.6,201.4,M,14.5,M,,*69
$GPGGA,121536.999,5554.01061,N,03732.51638,E,1,18,00.6,201.4,M,14.5,M,,*64
$GPGGA,121537.999,5554.01061,N,03732.51639,E,1,18,00.6,201.3,M,14.5,M,,*63
$GPGGA,121538.999,5554.01061,N,03732.51639,E,1,18,00.6,201.3,M,14.5,M,,*6C
$GPGGA,121539.999,5554.01061,N,03732.51640,E,1,18,00.6,201.3,M,14.5,M,,*63
$GPGGA,121540.999,5554.01061,N,03732.51641,E,1,18,00.6,201.3,M,14.5,M,,*6C
$GPGGA,121541.999,5554.01061,N,03732.51643,E,1,18,00.6,201.3,M,14.5,M,,*6F
$GPGGA,121542.999,5554.01061,N,03732.51644,E,1,18,00.6,201.3,M,14.5,M,,*6B
$GPGGA,121543.999,5554.01062,N,03732.51645,E,1,18,00.6,201.2,M,14.5,M,,*69
$GPGGA,121544.999,5554.01062,N,03732.51645,E,1,18,00.6,201.2,M,14.5,M,,*6E
$GPGGA,121545.999,5554.01063,N,03732.51645,E,1,18,00.6,201.2,M,14.5,M,,*6E
$GPGGA,121546.999,5554.01063,N,03732.51646,E,1,18,00.6,201.2,M,14.5,M,,*6E
$GPGGA,121547.999,5554.01063,N,03732.51646,E,1,18,00.6,201.2,M,14.5,M,,*6F
$GPGGA,121548.999,5554.01063,N,03732.51647,E,1,18,00.6,201.1,M,14.5,M,,*62
$GPGGA,121549.999,5554.01062,N,03732.51647,E,1,18,00.6,201.1,M,14.5,M,,*62
$GPGGA,121550.999,5554.01062,N,03732.51647,E,1,18,00.6,201.1,M,14.5,M,,*6A
$GPGGA,121551.999,5554.01062,N,03732.51649,E,1,18,00.6,201.1,M,14.5,M,,*65
$GPGGA,121552.999,5554.01062,N,03732.51652,E,1,18,00.6,201.1,M,14.5,M,,*6C
$GPGGA,121553.999,5554.01062,N,03732.51653,E,1,18,00.6,201.1,M,14.5,M,,*6C
$GPGGA,121554.999,5554.01062,N,03732.51655,E,1,18,00.6,201.1,M,14.5,M,,*6D
$GPGGA,121555.999,5554.01062,N,03732.51657,E,1,18,00.6,201.1,M,14.5,M,,*6E
$GPGGA,121556.999,5554.01062,N,03732.51658,E,1,18,00.6,201.0,M,14.5,M,,*63
$GPGGA,121557.999,5554.01062,N,03732.51659,E,1,18,00.6,201.0,M,14.5,M,,*63
$GPGGA,121558.999,5554.01061,N,03732.51660,E,1,18,00.6,201.0,M,14.5,M,,*65
$GPGGA,121559.999,5554.01061,N,03732.51661,E,1,18,00.6,201.0,M,14.5,M,,*65
$GPGGA,121600.999,5554.01060,N,03732.51662,E,1,18,00.6,201.0,M,14.5,M,,*68
$GPGGA,121601.999,5554.01060,N,03732.51662,E,1,18,00.6,201.0,M,14.5,M,,*69
$GPGGA,121602.999,5554.01059,N,03732.51664,E,1,18,00.6,201.0,M,14.5,M,,*66
$GPGGA,121603.999,5554.01058,N,03732.51665,E,1,18,00.6,201.0,M,14.5,M,,*67
$GPGGA,121604.999,5554.01057,N,03732.51666,E,1,18,00.6,201.0,M,14.5,M,,*6C
$GPGGA,121605.999,5554.01057,N,03732.51668,E,1,18,00.6,201.0,M,14.5,M,,*63
$GPGGA,121606.999,5554.01057,N,03732.51669,E,1,18,00.6,201.0,M,14.5,M,,*61
$GPGGA,121607.999,5554.01056,N,03732.51669,E,1,18,00.6,201.0,M,14.5,M,,*61
$GPGGA,121608.999,5554.01056,N,03732.51669,E,1,19,00.6,201.0,M,14.5,M,,*6F
$GPGGA,121609.999,5554.01056,N,03732.51670,E,1,19,00.6,201.0,M,14.5,M,,*66
$GPGGA,121610.999,5554.01056,N,03732.51670,E,1,19,00.6,201.0,M,14.5,M,,*6E
$GPGGA,121611.999,5554.01056,N,03732.51670,E,1,19,00.6,201.0,M,14.5,M,,*6F
$GPGGA,121612.999,5554.01056,N,03732.51670,E,1,19,00.6,201.0,M,14.5,M,,*6C
$GPGGA,121613.999,5554.01056,N,03732.51670,E,1,19,00.6,201.0,M,14.5,M,,*6D
$GPGGA,121614.999,5554.01057,N,03732.51670,E,1,19,00.6,201.0,M,14.5,M,,*6B
$GPGGA,121615.999,5554.01057,N,03732.51670,E,1,19,00.6,201.0,M,14.5,M,,*6A
$GPGGA,121616.999,5554.01057,N,03732.51670,E,1,19,00.6,201.0,M,14.5,M,,*69
$GPGGA,121617.999,5554.01058,N,03732.51669,E,1,19,00.6,201.0,M,14.5,M,,*6F
$GPGGA,121618.999,5554.01058,N,03732.51669,E,1,19,00.6,201.0,M,14.5,M,,*60
$GPGGA,121619.999,5554.01058,N,03732.51669,E,1,19,00.6,201.0,M,14.5,M,,*61
$GPGGA,121620.999,5554.01058,N,03732.51668,E,1,19,00.6,201.0,M,14.5,M,,*6A
$GPGGA,121621.999,5554.01058,N,03732.51668,E,1,19,00.6,200.9,M,14.5,M,,*63
$GPGGA,121622.999,5554.01058,N,03732.51668,E,1,19,00.6,200.9,M,14.5,M,,*60
$GPGGA,121623.999,5554.01058,N,03732.51667,E,1,19,00.6,200.9,M,14.5,M,,*6E
$GPGGA,121624.999,5554.01057,N,03732.51667,E,1,19,00.6,200.9,M,14.5,M,,*66
$GPGGA,121625.999,5554.01057,N,03732.51667,E,1,19,00.6,200.9,M,14.5,M,,*67
$GPGGA,121626.999,5554.01057,N,03732.51667,E,1,19,00.6,200.9,M,14.5,M,,*64
$GPGGA,121627.999,5554.01056,N,03732.51667,E,1,19,00.6,200.8,M,14.5,M,,*65
$GPGGA,121628.999,5554.01056,N,03732.51668,E,1,19,00.6,200.8,M,14.5,M,,*65
$GPGGA,121629.999,5554.01056,N,03732.51668,E,1,19,00.6,200.8,M,14.5,M,,*64
$GPGGA,121630.999,5554.01056,N,03732.51671,E,1,20,00.6,200.8,M,14.5,M,,*6E
$GPGGA,121631.999,5554.01055,N,03732.51673,E,1,20,00.6,200.8,M,14.5,M,,*6E
$GPGGA,121632.999,5554.01054,N,03732.51675,E,1,20,00.6,200.8,M,14.5,M,,*6A
$GPGGA,121633.999,5554.01054,N,03732.51676,E,1,20,00.6,200.8,M,14.5,M,,*68
$GPGGA,121634.999,5554.01053,N,03732.51678,E,1,20,00.6,200.8,M,14.5,M,,*66
$GPGGA,121635.999,5554.01052,N,03732.51678,E,1,20,00.6,200.8,M,14.5,M,,*66
$GPGGA,121636.999,5554.01052,N,03732.51678,E,1,20,00.6,200.8,M,14.5,M,,*65
$GPGGA,121637.999,5554.01051,N,03732.51678,E,1,20,00.6,200.8,M,14.5,M,,*67
$GPGGA,121638.999,5554.01050,N,03732.51678,E,1,20,00.6,200.8,M,14.5,M,,*69
$GPGGA,121639.999,5554.01049,N,03732.51675,E,1,20,00.6,200.7,M,14.5,M,,*62
$GPGGA,121640.999,5554.01048,N,03732.51673,E,1,20,00.6,200.7,M,14.5,M,,*6B
$GPGGA,121641.999,5554.01048,N,03732.51671,E,1,20,00.6,200.7,M,14.5,M,,*68
$GPGGA,121642.999,5554.01047,N,03732.51669,E,1,20,00.6,200.6,M,14.5,M,,*6C
$GPGGA,121643.999,5554.01046,N,03732.51668,E,1,20,00.6,200.6,M,14.5,M,,*6D
$GPGGA,121644.999,5554.01046,N,03732.51666,E,1,20,00.6,200.6,M,14.5,M,,*64
$GPGGA,121645.999,5554.01045,N,03732.51665,E,1,20,00.6,200.6,M,14.5,M,,*65
$GPGGA,121646.999,5554.01046,N,03732.51664,E,1,20,00.6,200.6,M,14.5,M,,*64
$GPGGA,121647.999,5554.01045,N,03732.51663,E,1,20,00.6,200.6,M,14.5,M,,*61
$GPGGA,121648.999,5554.01045,N,03732.51663,E,1,20,00.6,200.6,M,14.5,M,,*6E
$GPGGA,121649.999,5554.01045,N,03732.51662,E,1,20,00.6,200.6,M,14.5,M,,*6E
$GPGGA,121650.999,5554.01044,N,03732.51661,E,1,20,00.6,200.5,M,14.5,M,,*67
$GPGGA,121651.999,5554.01044,N,03732.51661,E,1,20,00.6,200.5,M,14.5,M,,*66
$GPGGA,121652.999,5554.01044,N,03732.51660,E,1,20,00.6,200.5,M,14.5,M,,*64
$GPGGA,121653.999,5554.01044,N,03732.51659,E,1,20,00.6,200.5,M,14.5,M,,*6F
$GPGGA,121654.999,5554.01045,N,03732.51659,E,1,20,00.6,200.5,M,14.5,M,,*69
$GPGGA,121655.999,5554.01045,N,03732.51658,E,1,20,00.6,200.5,M,14.5,M,,*69
$GPGGA,121656.999,5554.01045,N,03732.51658,E,1,20,00.6,200.5,M,14.5,M,,*6A
$GPGGA,121657.999,5554.01046,N,03732.51657,E,1,20,00.6,200.5,M,14.5,M,,*67
$GPGGA,121658.999,5554.01046,N,03732.51657,E,1,20,00.6,200.5,M,14.5,M,,*68
$GPGGA,121659.999,5554.01047,N,03732.51657,E,1,20,00.6,200.5,M,14.5,M,,*68
$GPGGA,121700.999,5554.01047,N,03732.51657,E,1,20,00.6,200.5,M,14.5,M,,*65
$GPGGA,121701.999,5554.01048,N,03732.51657,E,1,20,00.6,200.5,M,14.5,M,,*6B
$GPGGA,121702.999,5554.01048,N,03732.51657,E,1,20,00.6,200.5,M,14.5,M,,*68
$GPGGA,121703.999,5554.01048,N,03732.51658,E,1,20,00.6,200.5,M,14.5,M,,*66
$GPGGA,121704.999,5554.01048,N,03732.51655,E,1,20,00.6,200.5,M,14.5,M,,*6C
$GPGGA,121705.999,5554.01047,N,03732.51653,E,1,20,00.6,200.6,M,14.5,M,,*67
$GPGGA,121706.999,5554.01047,N,03732.51652,E,1,20,00.6,200.6,M,14.5,M,,*65
$GPGGA,121707.999,5554.01046,N,03732.51650,E,1,20,00.6,200.6,M,14.5,M,,*67
$GPGGA,121708.999,5554.01047,N,03732.51649,E,1,20,00.6,200.6,M,14.5,M,,*61
$GPGGA,121709.999,5554.01047,N,03732.51649,E,1,20,00.6,200.7,M,14.5,M,,*61
$GPGGA,121710.999,5554.01046,N,03732.51648,E,1,20,00.6,200.7,M,14.5,M,,*69
$GPGGA,121711.999,5554.01046,N,03732.51646,E,1,20,00.6,200.7,M,14.5,M,,*66
$GPGGA,121712.999,5554.01046,N,03732.51646,E,1,20,00.6,200.7,M,14.5,M,,*65
$GPGGA,121713.999,5554.01046,N,03732.51644,E,1,20,00.6,200.7,M,14.5,M,,*66
$GPGGA,121714.999,5554.01046,N,03732.51644,E,1,20,00.6,200.7,M,14.5,M,,*61
$GPGGA,121715.999,5554.01046,N,03732.51642,E,1,20,00.6,200.7,M,14.5,M,,*66
$GPGGA,121716.999,5554.01045,N,03732.51640,E,1,20,00.6,200.7,M,14.5,M,,*64
$GPGGA,121717.999,5554.01045,N,03732.51640,E,1,20,00.6,200.7,M,14.5,M,,*65
$GPGGA,121718.999,5554.01045,N,03732.51639,E,1,20,00.6,200.7,M,14.5,M,,*64
$GPGGA,121719.999,5554.01045,N,03732.51638,E,1,20,00.6,200.7,M,14.5,M,,*64
$GPGGA,121720.999,5554.01046,N,03732.51638,E,1,20,00.6,200.7,M,14.5,M,,*6D
$GPGGA,121721.999,5554.01046,N,03732.51637,E,1,20,00.6,200.7,M,14.5,M,,*63
$GPGGA,121722.999,5554.01047,N,03732.51636,E,1,20,00.6,200.7,M,14.5,M,,*60
$GPGGA,121723.999,5554.01047,N,03732.51635,E,1,20,00.6,200.7,M,14.5,M,,*62
$GPGGA,121724.999,5554.01048,N,03732.51635,E,1,20,00.6,200.7,M,14.5,M,,*6A
$GPGGA,121725.999,5554.01048,N,03732.51634,E,1,20,00.6,200.7,M,14.5,M,,*6A
$GPGGA,121726.999,5554.01049,N,03732.51634,E,1,20,00.6,200.7,M,14.5,M,,*68
$GPGGA,121727.999,5554.01049,N,03732.51633,E,1,20,00.6,200.7,M,14.5,M,,*6E
$GPGGA,121728.999,5554.01049,N,03732.51633,E,1,20,00.6,200.7,M,14.5,M,,*61
$GPGGA,121729.999,5554.01048,N,03732.51632,E,1,20,00.6,200.7,M,14.5,M,,*60
$GPGGA,121730.999,5554.01048,N,03732.51632,E,1,20,00.6,200.7,M,14.5,M,,*68
$GPGGA,121731.999,5554.01048,N,03732.51631,E,1,20,00.6,200.7,M,14.5,M,,*6A
$GPGGA,121732.999,5554.01047,N,03732.51630,E,1,20,00.6,200.7,M,14.5,M,,*67
$GPGGA,121733.999,5554.01047,N,03732.51630,E,1,20,00.6,200.7,M,14.5,M,,*66
$GPGGA,121734.999,5554.01046,N,03732.51630,E,1,20,00.6,200.7,M,14.5,M,,*60
$GPGGA,121735.999,5554.01045,N,03732.51629,E,1,20,00.6,200.7,M,14.5,M,,*6A
$GPGGA,121736.999,5554.01045,N,03732.51629,E,1,20,00.6,200.7,M,14.5,M,,*69
$GPGGA,121737.999,5554.01045,N,03732.51629,E,1,20,00.6,200.7,M,14.5,M,,*68
$GPGGA,121738.999,5554.01044,N,03732.51629,E,1,20,00.6,200.7,M,14.5,M,,*66
$GPGGA,121739.999,5554.01043,N,03732.51628,E,1,20,00.6,200.7,M,14.5,M,,*61
$GPGGA,121740.999,5554.01043,N,03732.51628,E,1,20,00.6,200.6,M,14.5,M,,*6E
$GPGGA,121741.999,5554.01042,N,03732.51627,E,1,20,00.6,200.6,M,14.5,M,,*61
$GPGGA,121742.999,5554.01042,N,03732.51627,E,1,20,00.6,200.6,M,14.5,M,,*62
$GPGGA,121743.999,5554.01042,N,03732.51626,E,1,20,00.6,200.6,M,14.5,M,,*62
$GPGGA,121744.999,5554.01043,N,03732.51626,E,1,20,00.6,200.6,M,14.5,M,,*64
$GPGGA,121745.999,5554.01043,N,03732.51625,E,1,20,00.6,200.7,M,14.5,M,,*67
$GPGGA,121746.999,5554.01042,N,03732.51624,E,1,20,00.6,200.6,M,14.5,M,,*65
$GPGGA,121747.999,5554.01042,N,03732.51625,E,1,20,00.6,200.7,M,14.5,M,,*64
$GPGGA,121748.999,5554.01041,N,03732.51625,E,1,20,00.6,200.7,M,14.5,M,,*68
$GPGGA,121749.999,5554.01041,N,03732.51625,E,1,20,00.6,200.7,M,14.5,M,,*69
$GPGGA,121750.999,5554.01042,N,03732.51623,E,1,20,00.6,200.7,M,14.5,M,,*64
$GPGGA,121751.999,5554.01042,N,03732.51623,E,1,20,00.6,200.7,M,14.5,M,,*65
$GPGGA,121752.999,5554.01043,N,03732.51624,E,1,20,00.6,200.7,M,14.5,M,,*60
$GPGGA,121753.999,5554.01043,N,03732.51622,E,1,20,00.6,200.7,M,14.5,M,,*67
$GPGGA,121754.999,5554.01043,N,03732.51621,E,1,20,00.6,200.8,M,14.5,M,,*6C
$GPGGA,121755.999,5554.01043,N,03732.51621,E,1,20,00.6,200.8,M,14.5,M,,*6D
$GPGGA,121756.999,5554.01044,N,03732.51620,E,1,20,00.6,200.8,M,14.5,M,,*68
$GPGGA,121757.999,5554.01044,N,03732.51619,E,1,20,00.6,200.8,M,14.5,M,,*63
$GPGGA,121758.999,5554.01044,N,03732.51619,E,1,20,00.6,200.8,M,14.5,M,,*6C
$GPGGA,121759.999,5554.01043,N,03732.51619,E,1,20,00.6,200.8,M,14.5,M,,*6A
$GPGGA,121800.999,5554.01043,N,03732.51619,E,1,20,00.6,200.8,M,14.5,M,,*69
$GPGGA,121801.999,5554.01043,N,03732.51618,E,1,20,00.6,200.7,M,14.5,M,,*66
$GPGGA,121802.999,5554.01043,N,03732.51618,E,1,20,00.6,200.7,M,14.5,M,,*65
$GPGGA,121803.999,5554.01042,N,03732.51617,E,1,20,00.6,200.7,M,14.5,M,,*6A
$GPGGA,121804.999,5554.01042,N,03732.51617,E,1,20,00.6,200.7,M,14.5,M,,*6D
$GPGGA,121805.999,5554.01042,N,03732.51617,E,1,20,00.6,200.7,M,14.5,M,,*6C
$GPGGA,121806.999,5554.01041,N,03732.51616,E,1,20,00.6,200.7,M,14.5,M,,*6D
$GPGGA,121807.999,5554.01041,N,03732.51615,E,1,20,00.6,200.7,M,14.5,M,,*6F
$GPGGA,121808.999,5554.01040,N,03732.51614,E,1,20,00.6,200.6,M,14.5,M,,*61
$GPGGA,121809.999,5554.01040,N,03732.51614,E,1,20,00.6,200.6,M,14.5,M,,*60
$GPGGA,121810.999,5554.01039,N,03732.51613,E,1,20,00.6,200.6,M,14.5,M,,*61
$GPGGA,121811.999,5554.01038,N,03732.51612,E,1,20,00.6,200.6,M,14.5,M,,*60
$GPGGA,121812.999,5554.01037,N,03732.51611,E,1,20,00.6,200.6,M,14.5,M,,*6F
$GPGGA,121813.999,5554.01036,N,03732.51610,E,1,20,00.6,200.6,M,14.5,M,,*6E
$GPGGA,121814.999,5554.01035,N,03732.51610,E,1,20,00.6,200.6,M,14.5,M,,*6A
$GPGGA,121815.999,5554.01034,N,03732.51609,E,1,20,00.6,200.5,M,14.5,M,,*61
$GPGGA,121816.999,5554.01034,N,03732.51609,E,1,20,00.6,200.5,M,14.5,M,,*62
$GPGGA,121817.999,5554.01033,N,03732.51609,E,1,20,00.6,200.5,M,14.5,M,,*64
$GPGGA,121818.999,5554.01033,N,03732.51609,E,1,20,00.6,200.5,M,14.5,M,,*6B
$GPGGA,121819.999,5554.01033,N,03732.51611,E,1,20,00.6,200.5,M,14.5,M,,*63
$GPGGA,121820.999,5554.01033,N,03732.51611,E,1,20,00.6,200.5,M,14.5,M,,*69
$GPGGA,121821.999,5554.01033,N,03732.51612,E,1,20,00.6,200.5,M,14.5,M,,*6B
$GPGGA,121822.999,5554.01033,N,03732.51613,E,1,20,00.6,200.4,M,14.5,M,,*68
$GPGGA,121823.999,5554.01033,N,03732.51614,E,1,20,00.6,200.4,M,14.5,M,,*6E
$GPGGA,121824.999,5554.01033,N,03732.51614,E,1,20,00.6,200.4,M,14.5,M,,*69
$GPGGA,121825.999,5554.01034,N,03732.51615,E,1,20,00.6,200.4,M,14.5,M,,*6E
$GPGGA,121826.999,5554.01034,N,03732.51615,E,1,20,00.6,200.4,M,14.5,M,,*6D
$GPGGA,121827.999,5554.01034,N,03732.51615,E,1,20,00.6,200.4,M,14.5,M,,*6C
$GPGGA,121828.999,5554.01034,N,03732.51614,E,1,20,00.6,200.4,M,14.5,M,,*62
$GPGGA,121829.999,5554.01034,N,03732.51615,E,1,20,00.6,200.4,M,14.5,M,,*62
$GPGGA,121830.999,5554.01034,N,03732.51615,E,1,20,00.6,200.4,M,14.5,M,,*6A
$GPGGA,121831.999,5554.01034,N,03732.51615,E,1,20,00.6,200.4,M,14.5,M,,*6B
$GPGGA,121832.999,5554.01034,N,03732.51616,E,1,20,00.6,200.4,M,14.5,M,,*6B
$GPGGA,121833.999,5554.01033,N,03732.51616,E,1,20,00.6,200.4,M,14.5,M,,*6D
$GPGGA,121834.999,5554.01033,N,03732.51616,E,1,20,00.6,200.4,M,14.5,M,,*6A
$GPGGA,121835.999,5554.01032,N,03732.51617,E,1,20,00.6,200.4,M,14.5,M,,*6B
$GPGGA,121836.999,5554.01032,N,03732.51618,E,1,20,00.6,200.4,M,14.5,M,,*67
$GPGGA,121837.999,5554.01033,N,03732.51619,E,1,20,00.6,200.4,M,14.5,M,,*66
$GPGGA,121838.999,5554.01033,N,03732.51620,E,1,20,00.6,200.4,M,14.5,M,,*63
$GPGGA,121839.999,5554.01033,N,03732.51621,E,1,20,00.6,200.4,M,14.5,M,,*63
$GPGGA,121840.999,5554.01033,N,03732.51621,E,1,20,00.6,200.4,M,14.5,M,,*6D
$GPGGA,121841.999,5554.01034,N,03732.51622,E,1,20,00.6,200.4,M,14.5,M,,*68
$GPGGA,121842.999,5554.01033,N,03732.51622,E,1,20,00.6,200.4,M,14.5,M,,*6C
$GPGGA,121843.999,5554.01034,N,03732.51622,E,1,20,00.6,200.4,M,14.5,M,,*6A
$GPGGA,121844.999,5554.01034,N,03732.51622,E,1,20,00.6,200.4,M,14.5,M,,*6D
$GPGGA,121845.999,5554.01034,N,03732.51623,E,1,20,00.6,200.4,M,14.5,M,,*6D
$GPGGA,121846.999,5554.01034,N,03732.51623,E,1,20,00.6,200.5,M,14.5,M,,*6F
$GPGGA,121847.999,5554.01034,N,03732.51624,E,1,20,00.6,200.5,M,14.5,M,,*69
$GPGGA,121848.999,5554.01034,N,03732.51624,E,1,20,00.6,200.5,M,14.5,M,,*66
$GPGGA,121849.999,5554.01035,N,03732.51625,E,1,20,00.6,200.5,M,14.5,M,,*67
$GPGGA,121850.999,5554.01035,N,03732.51627,E,1,20,00.6,200.5,M,14.5,M,,*6D
$GPGGA,121851.999,5554.01036,N,03732.51627,E,1,20,00.6,200.4,M,14.5,M,,*6E
$GPGGA,121852.999,5554.01036,N,03732.51628,E,1,20,00.6,200.4,M,14.5,M,,*62
$GPGGA,121853.999,5554.01036,N,03732.51629,E,1,20,00.6,200.4,M,14.5,M,,*62
$GPGGA,121854.999,5554.01036,N,03732.51630,E,1,20,00.6,200.4,M,14.5,M,,*6D
$GPGGA,121855.999,5554.01037,N,03732.51630,E,1,20,00.6,200.4,M,14.5,M,,*6D
$GPGGA,121856.999,5554.01037,N,03732.51631,E,1,20,00.6,200.4,M,14.5,M,,*6F
$GPGGA,121857.999,5554.01038,N,03732.51631,E,1,20,00.6,200.5,M,14.5,M,,*60
$GPGGA,121858.999,5554.01038,N,03732.51632,E,1,20,00.6,200.5,M,14.5,M,,*6C
$GPGGA,121859.999,5554.01038,N,03732.51633,E,1,20,00.6,200.5,M,14.5,M,,*6C
$GPGGA,121900.999,5554.01038,N,03732.51633,E,1,20,00.6,200.5,M,14.5,M,,*61
$GPGGA,121901.999,5554.01039,N,03732.51634,E,1,20,00.6,200.5,M,14.5,M,,*66
$GPGGA,121902.999,5554.01039,N,03732.51634,E,1,20,00.6,200.5,M,14.5,M,,*65
$GPGGA,121903.999,5554.01039,N,03732.51635,E,1,20,00.6,200.6,M,14.5,M,,*66
$GPGGA,121904.999,5554.01039,N,03732.51634,E,1,20,00.6,200.6,M,14.5,M,,*60
$GPGGA,121905.999,5554.01039,N,03732.51634,E,1,20,00.6,200.6,M,14.5,M,,*61
$GPGGA,121906.999,5554.01039,N,03732.51634,E,1,20,00.6,200.6,M,14.5,M,,*62
$GPGGA,121907.999,5554.01040,N,03732.51634,E,1,20,00.6,200.6,M,14.5,M,,*6D
$GPGGA,121908.999,5554.01040,N,03732.51633,E,1,20,00.6,200.7,M,14.5,M,,*64
$GPGGA,121909.999,5554.01041,N,03732.51633,E,1,20,00.6,200.7,M,14.5,M,,*64
$GPGGA,121910.999,5554.01041,N,03732.51632,E,1,20,00.6,200.7,M,14.5,M,,*6D
$GPGGA,121911.999,5554.01041,N,03732.51632,E,1,20,00.6,200.7,M,14.5,M,,*6C
$GPGGA,121912.999,5554.01042,N,03732.51631,E,1,20,00.6,200.8,M,14.5,M,,*60
$GPGGA,121913.999,5554.01042,N,03732.51631,E,1,20,00.6,200.8,M,14.5,M,,*61
$GPGGA,121914.999,5554.01041,N,03732.51631,E,1,20,00.6,200.8,M,14.5,M,,*65
$GPGGA,121915.999,5554.01042,N,03732.51631,E,1,20,00.6,200.8,M,14.5,M,,*67
$GPGGA,121916.999,5554.01042,N,03732.51631,E,1,20,00.6,200.8,M,14.5,M,,*64
$GPGGA,121917.999,5554.01041,N,03732.51632,E,1,20,00.6,200.8,M,14.5,M,,*65
$GPGGA,121918.999,5554.01040,N,03732.51634,E,1,20,00.6,200.8,M,14.5,M,,*6D
$GPGGA,121919.999,5554.01040,N,03732.51635,E,1,20,00.6,200.9,M,14.5,M,,*6C
$GPGGA,121920.999,5554.01039,N,03732.51637,E,1,20,00.6,200.8,M,14.5,M,,*6B
$GPGGA,121921.999,5554.01039,N,03732.51638,E,1,20,00.6,200.9,M,14.5,M,,*64
$GPGGA,121922.999,5554.01038,N,03732.51638,E,1,20,00.6,200.9,M,14.5,M,,*66
$GPGGA,121923.999,5554.01038,N,03732.51638,E,1,20,00.6,200.9,M,14.5,M,,*67
$GPGGA,121924.999,5554.01037,N,03732.51638,E,1,20,00.6,200.9,M,14.5,M,,*6F
$GPGGA,121925.999,5554.01036,N,03732.51637,E,1,20,00.6,200.9,M,14.5,M,,*60
$GPGGA,121926.999,5554.01037,N,03732.51638,E,1,20,00.6,200.9,M,14.5,M,,*6D
$GPGGA,121927.999,5554.01037,N,03732.51638,E,1,20,00.6,200.8,M,14.5,M,,*6D
$GPGGA,121928.999,5554.01037,N,03732.51638,E,1,20,00.6,200.8,M,14.5,M,,*62
$GPGGA,121929.999,5554.01036,N,03732.51638,E,1,20,00.6,200.8,M,14.5,M,,*62
$GPGGA,121930.999,5554.01036,N,03732.51638,E,1,20,00.6,200.8,M,14.5,M,,*6A
$GPGGA,121931.999,5554.01036,N,03732.51637,E,1,20,00.6,200.7,M,14.5,M,,*6B
$GPGGA,121932.999,5554.01036,N,03732.51637,E,1,20,00.6,200.7,M,14.5,M,,*68
$GPGGA,121933.999,5554.01035,N,03732.51638,E,1,20,00.6,200.7,M,14.5,M,,*65
$GPGGA,121934.999,5554.01035,N,03732.51637,E,1,20,00.6,200.7,M,14.5,M,,*6D
$GPGGA,121935.999,5554.01035,N,03732.51638,E,1,20,00.6,200.7,M,14.5,M,,*63
$GPGGA,121936.999,5554.01035,N,03732.51638,E,1,20,00.6,200.7,M,14.5,M,,*60
$GPGGA,121937.999,5554.01035,N,03732.51638,E,1,20,00.6,200.7,M,14.5,M,,*61
$GPGGA,121938.999,5554.01034,N,03732.51639,E,1,20,00.6,200.7,M,14.5,M,,*6E
$GPGGA,121939.999,5554.01034,N,03732.51640,E,1,20,00.6,200.7,M,14.5,M,,*61
$GPGGA,121940.999,5554.01034,N,03732.51641,E,1,20,00.6,200.7,M,14.5,M,,*6E
$GPGGA,121941.999,5554.01033,N,03732.51641,E,1,20,00.6,200.7,M,14.5,M,,*68
$GPGGA,121942.999,5554.01033,N,03732.51642,E,1,20,00.6,200.7,M,14.5,M,,*68
$GPGGA,121943.999,5554.01033,N,03732.51643,E,1,20,00.6,200.7,M,14.5,M,,*68
$GPGGA,121944.999,5554.01033,N,03732.51643,E,1,20,00.6,200.7,M,14.5,M,,*6F
$GPGGA,121945.999,5554.01032,N,03732.51643,E,1,20,00.6,200.7,M,14.5,M,,*6F
$GPGGA,121946.999,5554.01032,N,03732.51642,E,1,20,00.6,200.7,M,14.5,M,,*6D
$GPGGA,121947.999,5554.01031,N,03732.51642,E,1,20,00.6,200.7,M,14.5,M,,*6F
$GPGGA,121948.999,5554.01031,N,03732.51642,E,1,20,00.6,200.6,M,14.5,M,,*61
$GPGGA,121949.999,5554.01031,N,03732.51642,E,1,20,00.6,200.6,M,14.5,M,,*60
$GPGGA,121950.999,5554.01032,N,03732.51642,E,1,20,00.6,200.6,M,14.5,M,,*6B
$GPGGA,121951.999,5554.01032,N,03732.51642,E,1,20,00.6,200.5,M,14.5,M,,*69
$GPGGA,121952.999,5554.01032,N,03732.51642,E,1,20,00.6,200.5,M,14.5,M,,*6A
$GPGGA,121953.999,5554.01033,N,03732.51642,E,1,20,00.6,200.5,M,14.5,M,,*6A
$GPGGA,121954.999,5554.01033,N,03732.51642,E,1,20,00.6,200.5,M,14.5,M,,*6D
$GPGGA,121955.999,5554.01033,N,03732.51642,E,1,20,00.6,200.5,M,14.5,M,,*6C
$GPGGA,121956.999,5554.01033,N,03732.51643,E,1,20,00.6,200.4,M,14.5,M,,*6F
$GPGGA,121957.999,5554.01033,N,03732.51643,E,1,20,00.6,200.4,M,14.5,M,,*6E
$GPGGA,121958.999,5554.01033,N,03732.51643,E,1,20,00.6,200.4,M,14.5,M,,*61
$GPGGA,121959.999,5554.01033,N,03732.51644,E,1,20,00.6,200.4,M,14.5,M,,*67
$GPGGA,122000.999,5554.01033,N,03732.51644,E,1,20,00.6,200.4,M,14.5,M,,*61
$GPGGA,122001.999,5554.01033,N,03732.51645,E,1,20,00.6,200.4,M,14.5,M,,*61
$GPGGA,122002.999,5554.01034,N,03732.51645,E,1,20,00.6,200.3,M,14.5,M,,*62
$GPGGA,122003.999,5554.01034,N,03732.51646,E,1,20,00.6,200.3,M,14.5,M,,*60
$GPGGA,122004.999,5554.01033,N,03732.51646,E,1,20,00.6,200.3,M,14.5,M,,*60
$GPGGA,122005.999,5554.01033,N,03732.51647,E,1,20,00.6,200.2,M,14.5,M,,*61
$GPGGA,122006.999,5554.01033,N,03732.51647,E,1,20,00.6,200.2,M,14.5,M,,*62
$GPGGA,122007.999,5554.01033,N,03732.51647,E,1,20,00.6,200.2,M,14.5,M,,*63
$GPGGA,122008.999,5554.01033,N,03732.51648,E,1,20,00.6,200.2,M,14.5,M,,*63
$GPGGA,122009.999,5554.01033,N,03732.51648,E,1,20,00.6,200.2,M,14.5,M,,*62
$GPGGA,122010.999,5554.01033,N,03732.51648,E,1,20,00.6,200.2,M,14.5,M,,*6A
$GPGGA,122011.999,5554.01032,N,03732.51648,E,1,20,00.6,200.1,M,14.5,M,,*69
$GPGGA,122012.999,5554.01032,N,03732.51648,E,1,20,00.6,200.1,M,14.5,M,,*6A
$GPGGA,122013.999,5554.01032,N,03732.51647,E,1,20,00.6,200.1,M,14.5,M,,*64
$GPGGA,122014.999,5554.01032,N,03732.51647,E,1,20,00.6,200.1,M,14.5,M,,*63
$GPGGA,122015.999,5554.01032,N,03732.51646,E,1,20,00.6,200.1,M,14.5,M,,*63
$GPGGA,122016.999,5554.01031,N,03732.51646,E,1,20,00.6,200.1,M,14.5,M,,*63
$GPGGA,122017.999,5554.01031,N,03732.51646,E,1,20,00.6,200.1,M,14.5,M,,*62
$GPGGA,122018.999,5554.01031,N,03732.51646,E,1,20,00.6,200.1,M,14.5,M,,*6D
$GPGGA,122019.999,5554.01030,N,03732.51646,E,1,20,00.6,200.0,M,14.5,M,,*6C
$GPGGA,122020.999,5554.01030,N,03732.51646,E,1,20,00.6,200.0,M,14.5,M,,*66
$GPGGA,122021.999,5554.01029,N,03732.51647,E,1,20,00.6,200.0,M,14.5,M,,*6E
$GPGGA,122022.999,5554.01029,N,03732.51647,E,1,20,00.6,200.0,M,14.5,M,,*6D
$GPGGA,122023.999,5554.01029,N,03732.51647,E,1,20,00.6,200.0,M,14.5,M,,*6C
$GPGGA,122024.999,5554.01029,N,03732.51647,E,1,20,00.6,200.0,M,14.5,M,,*6B
$GPGGA,122025.999,5554.01028,N,03732.51648,E,1,20,00.6,200.0,M,14.5,M,,*64
$GPGGA,122026.999,5554.01028,N,03732.51648,E,1,20,00.6,200.0,M,14.5,M,,*67
$GPGGA,122027.999,5554.01029,N,03732.51649,E,1,20,00.6,200.0,M,14.5,M,,*66
$GPGGA,122028.999,5554.01029,N,03732.51648,E,1,20,00.6,200.0,M,14.5,M,,*68
$GPGGA,122029.999,5554.01029,N,03732.51648,E,1,20,00.6,200.0,M,14.5,M,,*69
$GPGGA,122030.999,5554.01029,N,03732.51648,E,1,20,00.6,199.9,M,14.5,M,,*6B
$GPGGA,122031.999,5554.01030,N,03732.51647,E,1,20,00.6,199.9,M,14.5,M,,*6D
$GPGGA,122032.999,5554.01030,N,03732.51647,E,1,20,00.6,199.9,M,14.5,M,,*6E
$GPGGA,122033.999,5554.01029,N,03732.51647,E,1,20,00.6,199.9,M,14.5,M,,*67
$GPGGA,122034.999,5554.01029,N,03732.51646,E,1,20,00.6,199.9,M,14.5,M,,*61
$GPGGA,122035.999,5554.01029,N,03732.51646,E,1,20,00.6,199.9,M,14.5,M,,*60
$GPGGA,122036.999,5554.01029,N,03732.51646,E,1,20,00.6,199.9,M,14.5,M,,*63
$GPGGA,122037.999,5554.01029,N,03732.51645,E,1,20,00.6,199.9,M,14.5,M,,*61
$GPGGA,122038.999,5554.01029,N,03732.51644,E,1,20,00.6,199.9,M,14.5,M,,*6F
$GPGGA,122039.999,5554.01029,N,03732.51644,E,1,20,00.6,199.9,M,14.5,M,,*6E
$GPGGA,122040.999,5554.01029,N,03732.51644,E,1,20,00.6,199.9,M,14.5,M,,*60
$GPGGA,122041.999,5554.01029,N,03732.51643,E,1,20,00.6,199.9,M,14.5,M,,*66
$GPGGA,122042.999,5554.01029,N,03732.51643,E,1,20,00.6,199.9,M,14.5,M,,*65
$GPGGA,122043.999,5554.01030,N,03732.51643,E,1,20,00.6,199.9,M,14.5,M,,*6C
$GPGGA,122044.999,5554.01030,N,03732.51642,E,1,20,00.6,199.9,M,14.5,M,,*6A
$GPGGA,122045.999,5554.01029,N,03732.51642,E,1,20,00.6,199.9,M,14.5,M,,*63
$GPGGA,122046.999,5554.01030,N,03732.51642,E,1,20,00.6,200.0,M,14.5,M,,*62
$GPGGA,122047.999,5554.01029,N,03732.51642,E,1,20,00.6,200.0,M,14.5,M,,*6B
$GPGGA,122048.999,5554.01030,N,03732.51642,E,1,20,00.6,200.0,M,14.5,M,,*6C
$GPGGA,122049.999,5554.01029,N,03732.51643,E,1,20,00.6,199.9,M,14.5,M,,*6E
$GPGGA,122050.999,5554.01029,N,03732.51643,E,1,20,00.6,200.0,M,14.5,M,,*6C
$GPGGA,122051.999,5554.01029,N,03732.51643,E,1,20,00.6,199.9,M,14.5,M,,*67
$GPGGA,122052.999,5554.01029,N,03732.51643,E,1,20,00.6,200.0,M,14.5,M,,*6E
$GPGGA,122053.999,5554.01028,N,03732.51644,E,1,20,00.6,199.9,M,14.5,M,,*63
$GPGGA,122054.999,5554.01029,N,03732.51644,E,1,20,00.6,199.9,M,14.5,M,,*65
$GPGGA,122055.999,5554.01029,N,03732.51644,E,1,20,00.6,199.9,M,14.5,M,,*64
$GPGGA,122056.999,5554.01029,N,03732.51644,E,1,20,00.6,199.9,M,14.5,M,,*67
$GPGGA,122057.999,5554.01029,N,03732.51645,E,1,20,00.6,199.9,M,14.5,M,,*67
$GPGGA,122058.999,5554.01029,N,03732.51646,E,1,20,00.6,199.9,M,14.5,M,,*6B
$GPGGA,122059.999,5554.01029,N,03732.51645,E,1,20,00.6,199.9,M,14.5,M,,*69
$GPGGA,122100.999,5554.01029,N,03732.51646,E,1,20,00.6,200.0,M,14.5,M,,*6D
$GPGGA,122101.999,5554.01029,N,03732.51647,E,1,20,00.6,200.0,M,14.5,M,,*6D
$GPGGA,122102.999,5554.01030,N,03732.51647,E,1,20,00.6,200.0,M,14.5,M,,*66
$GPGGA,122103.999,5554.01030,N,03732.51647,E,1,20,00.6,200.0,M,14.5,M,,*67
$GPGGA,122104.999,5554.01031,N,03732.51647,E,1,20,00.6,200.0,M,14.5,M,,*61
$GPGGA,122105.999,5554.01031,N,03732.51648,E,1,20,00.6,200.1,M,14.5,M,,*6E
$GPGGA,122106.999,5554.01032,N,03732.51648,E,1,20,00.6,200.1,M,14.5,M,,*6E
$GPGGA,122107.999,5554.01032,N,03732.51648,E,1,20,00.6,200.1,M,14.5,M,,*6F
$GPGGA,122108.999,5554.01028,N,03732.51650,E,1,20,00.6,200.0,M,14.5,M,,*63
$GPGGA,122109.999,5554.01024,N,03732.51652,E,1,20,00.6,200.0,M,14.5,M,,*6C
$GPGGA,122110.999,5554.01022,N,03732.51652,E,1,20,00.6,199.9,M,14.5,M,,*68
$GPGGA,122111.999,5554.01020,N,03732.51654,E,1,20,00.6,199.9,M,14.5,M,,*6D
$GPGGA,122112.999,5554.01019,N,03732.51655,E,1,20,00.6,199.9,M,14.5,M,,*65
$GPGGA,122113.999,5554.01018,N,03732.51655,E,1,20,00.6,199.9,M,14.5,M,,*65
$GPGGA,122114.999,5554.01016,N,03732.51655,E,1,20,00.6,199.9,M,14.5,M,,*6C
$GPGGA,122115.999,5554.01016,N,03732.51655,E,1,20,00.6,199.9,M,14.5,M,,*6D
$GPGGA,122116.999,5554.01016,N,03732.51657,E,1,20,00.6,199.9,M,14.5,M,,*6C
$GPGGA,122117.999,5554.01015,N,03732.51657,E,1,20,00.6,199.9,M,14.5,M,,*6E
$GPGGA,122118.999,5554.01014,N,03732.51657,E,1,20,00.6,199.9,M,14.5,M,,*60
$GPGGA,122119.999,5554.01013,N,03732.51659,E,1,20,00.6,199.9,M,14.5,M,,*68
$GPGGA,122120.999,5554.01013,N,03732.51659,E,1,20,00.6,199.9,M,14.5,M,,*62
$GPGGA,122121.999,5554.01013,N,03732.51660,E,1,20,00.6,199.9,M,14.5,M,,*69
$GPGGA,122122.999,5554.01013,N,03732.51661,E,1,20,00.6,199.9,M,14.5,M,,*6B
$GPGGA,122123.999,5554.01013,N,03732.51662,E,1,20,00.6,199.9,M,14.5,M,,*69
$GPGGA,122124.999,5554.01013,N,03732.51662,E,1,20,00.6,199.9,M,14.5,M,,*6E
$GPGGA,122125.999,5554.01013,N,03732.51664,E,1,20,00.6,199.9,M,14.5,M,,*69
$GPGGA,122126.999,5554.01013,N,03732.51664,E,1,20,00.6,199.9,M,14.5,M,,*6A
$GPGGA,122127.999,5554.01013,N,03732.51665,E,1,20,00.6,199.9,M,14.5,M,,*6A
$GPGGA,122128.999,5554.01013,N,03732.51666,E,1,20,00.6,199.8,M,14.5,M,,*67
$GPGGA,122129.999,5554.01014,N,03732.51666,E,1,20,00.6,199.9,M,14.5,M,,*60
$GPGGA,122130.999,5554.01014,N,03732.51666,E,1,20,00.6,199.9,M,14.5,M,,*68
$GPGGA,122131.999,5554.01014,N,03732.51666,E,1,20,00.6,199.9,M,14.5,M,,*69
$GPGGA,122132.999,5554.01015,N,03732.51667,E,1,20,00.6,199.9,M,14.5,M,,*6A
$GPGGA,122133.999,5554.01014,N,03732.51666,E,1,20,00.6,199.9,M,14.5,M,,*6B
$GPGGA,122134.999,5554.01015,N,03732.51667,E,1,20,00.6,199.9,M,14.5,M,,*6C
$GPGGA,122135.999,5554.01014,N,03732.51668,E,1,20,00.6,199.9,M,14.5,M,,*63
$GPGGA,122136.999,5554.01014,N,03732.51669,E,1,20,00.6,199.9,M,14.5,M,,*61
$GPGGA,122137.999,5554.01012,N,03732.51667,E,1,20,00.6,199.9,M,14.5,M,,*68
$GPGGA,122138.999,5554.01010,N,03732.51666,E,1,20,00.6,200.0,M,14.5,M,,*6E
$GPGGA,122139.999,5554.01008,N,03732.51666,E,1,20,00.6,200.0,M,14.5,M,,*66
$GPGGA,122140.999,5554.01007,N,03732.51665,E,1,20,00.6,200.0,M,14.5,M,,*64
$GPGGA,122141.999,5554.01006,N,03732.51664,E,1,20,00.6,200.0,M,14.5,M,,*65
$GPGGA,122142.999,5554.01005,N,03732.51665,E,1,20,00.6,200.0,M,14.5,M,,*64
$GPGGA,122143.999,5554.01004,N,03732.51663,E,1,20,00.6,200.0,M,14.5,M,,*62
$GPGGA,122144.999,5554.01003,N,03732.51663,E,1,20,00.6,200.0,M,14.5,M,,*62
$GPGGA,122145.999,5554.01003,N,03732.51662,E,1,20,00.6,199.9,M,14.5,M,,*68
$GPGGA,122146.999,5554.01003,N,03732.51664,E,1,20,00.6,199.9,M,14.5,M,,*6D
$GPGGA,122147.999,5554.01004,N,03732.51664,E,1,20,00.6,199.9,M,14.5,M,,*6B
$GPGGA,122148.999,5554.01003,N,03732.51664,E,1,20,00.6,199.8,M,14.5,M,,*62
$GPGGA,122149.999,5554.01003,N,03732.51665,E,1,20,00.6,199.8,M,14.5,M,,*62
$GPGGA,122150.999,5554.01003,N,03732.51665,E,1,20,00.6,199.7,M,14.5,M,,*65
$GPGGA,122151.999,5554.01003,N,03732.51666,E,1,20,00.6,199.7,M,14.5,M,,*67
$GPGGA,122152.999,5554.01003,N,03732.51665,E,1,20,00.6,199.6,M,14.5,M,,*66
$GPGGA,122153.999,5554.01003,N,03732.51664,E,1,20,00.6,199.6,M,14.5,M,,*66
$GPGGA,122154.999,5554.01002,N,03732.51665,E,1,20,00.6,199.6,M,14.5,M,,*61
$GPGGA,122155.999,5554.01001,N,03732.51665,E,1,20,00.6,199.5,M,14.5,M,,*60
$GPGGA,122156.999,5554.01001,N,03732.51665,E,1,20,00.6,199.5,M,14.5,M,,*63
$GPGGA,122157.999,5554.01000,N,03732.51664,E,1,20,00.6,199.5,M,14.5,M,,*62
$GPGGA,122158.999,5554.01000,N,03732.51664,E,1,20,00.6,199.5,M,14.5,M,,*6D
$GPGGA,122159.999,5554.00999,N,03732.51664,E,1,20,00.6,199.4,M,14.5,M,,*65
$GPGGA,122200.999,5554.01000,N,03732.51662,E,1,20,00.6,199.4,M,14.5,M,,*64
$GPGGA,122201.999,5554.01000,N,03732.51660,E,1,20,00.6,199.3,M,14.5,M,,*60
$GPGGA,122202.999,5554.00999,N,03732.51658,E,1,20,00.6,199.3,M,14.5,M,,*60
$GPGGA,122203.999,5554.01000,N,03732.51657,E,1,20,00.6,199.2,M,14.5,M,,*67
$GPGGA,122204.999,5554.00999,N,03732.51655,E,1,20,00.6,199.2,M,14.5,M,,*6A
$GPGGA,122205.999,5554.00999,N,03732.51655,E,1,20,00.6,199.2,M,14.5,M,,*6B
$GPGGA,122206.999,5554.00998,N,03732.51656,E,1,20,00.6,199.2,M,14.5,M,,*6A
$GPGGA,122207.999,5554.00997,N,03732.51657,E,1,20,00.6,199.2,M,14.5,M,,*65
$GPGGA,122208.999,5554.00996,N,03732.51657,E,1,20,00.6,199.2,M,14.5,M,,*6B
$GPGGA,122209.999,5554.00995,N,03732.51657,E,1,20,00.6,199.2,M,14.5,M,,*69
$GPGGA,122210.999,5554.00994,N,03732.51658,E,1,20,00.6,199.2,M,14.5,M,,*6F
$GPGGA,122211.999,5554.00993,N,03732.51658,E,1,20,00.6,199.2,M,14.5,M,,*69
$GPGGA,122212.999,5554.00993,N,03732.51658,E,1,20,00.6,199.2,M,14.5,M,,*6A
$GPGGA,122213.999,5554.00992,N,03732.51659,E,1,20,00.6,199.2,M,14.5,M,,*6B
$GPGGA,122214.999,5554.00991,N,03732.51659,E,1,20,00.6,199.1,M,14.5,M,,*6C
$GPGGA,122215.999,5554.00990,N,03732.51658,E,1,20,00.6,199.1,M,14.5,M,,*6D
$GPGGA,122216.999,5554.00989,N,03732.51659,E,1,20,00.6,199.1,M,14.5,M,,*67
$GPGGA,122217.999,5554.00988,N,03732.51659,E,1,20,00.6,199.1,M,14.5,M,,*67
$GPGGA,122218.999,5554.00988,N,03732.51659,E,1,20,00.6,199.1,M,14.5,M,,*68
$GPGGA,122219.999,5554.00988,N,03732.51659,E,1,20,00.6,199.0,M,14.5,M,,*68
$GPGGA,122220.999,5554.00987,N,03732.51659,E,1,20,00.6,199.0,M,14.5,M,,*6D
$GPGGA,122221.999,5554.00986,N,03732.51659,E,1,20,00.6,199.0,M,14.5,M,,*6D
$GPGGA,122222.999,5554.00986,N,03732.51659,E,1,20,00.6,199.0,M,14.5,M,,*6E
$GPGGA,122223.999,5554.00986,N,03732.51659,E,1,20,00.6,199.0,M,14.5,M,,*6F
$GPGGA,122224.999,5554.00986,N,03732.51659,E,1,20,00.6,199.0,M,14.5,M,,*68
$GPGGA,122225.999,5554.00985,N,03732.51659,E,1,20,00.6,199.0,M,14.5,M,,*6A
$GPGGA,122226.999,5554.00985,N,03732.51659,E,1,20,00.6,199.0,M,14.5,M,,*69
$GPGGA,122227.999,5554.00985,N,03732.51660,E,1,20,00.6,199.0,M,14.5,M,,*62
$GPGGA,122228.999,5554.00985,N,03732.51660,E,1,20,00.6,199.0,M,14.5,M,,*6D
$GPGGA,122229.999,5554.00985,N,03732.51660,E,1,20,00.6,199.0,M,14.5,M,,*6C
$GPGGA,122230.999,5554.00984,N,03732.51660,E,1,20,00.6,199.0,M,14.5,M,,*65
$GPGGA,122231.999,5554.00984,N,03732.51660,E,1,20,00.6,199.0,M,14.5,M,,*64
$GPGGA,122232.999,5554.00983,N,03732.51661,E,1,20,00.6,199.0,M,14.5,M,,*61
$GPGGA,122233.999,5554.00983,N,03732.51662,E,1,20,00.6,199.0,M,14.5,M,,*63
$GPGGA,122234.999,5554.00982,N,03732.51662,E,1,20,00.6,199.0,M,14.5,M,,*65
$GPGGA,122235.999,5554.00981,N,03732.51662,E,1,20,00.6,198.9,M,14.5,M,,*6F
$GPGGA,122236.999,5554.00980,N,03732.51662,E,1,20,00.6,198.9,M,14.5,M,,*6D
$GPGGA,122237.999,5554.00978,N,03732.51662,E,1,20,00.6,198.9,M,14.5,M,,*6B
$GPGGA,122238.999,5554.00978,N,03732.51662,E,1,20,00.6,198.9,M,14.5,M,,*64
$GPGGA,122239.999,5554.00977,N,03732.51662,E,1,20,00.6,198.9,M,14.5,M,,*6A
$GPGGA,122240.999,5554.00976,N,03732.51662,E,1,20,00.6,198.8,M,14.5,M,,*64
$GPGGA,122241.999,5554.00976,N,03732.51662,E,1,20,00.6,198.8,M,14.5,M,,*65
$GPGGA,122242.999,5554.00976,N,03732.51662,E,1,20,00.6,198.8,M,14.5,M,,*66
$GPGGA,122243.999,5554.00975,N,03732.51662,E,1,20,00.6,198.8,M,14.5,M,,*64
$GPGGA,122244.999,5554.00975,N,03732.51663,E,1,20,00.6,198.8,M,14.5,M,,*62
$GPGGA,122245.999,5554.00975,N,03732.51662,E,1,20,00.6,198.8,M,14.5,M,,*62
$GPGGA,122246.999,5554.00975,N,03732.51662,E,1,20,00.6,198.8,M,14.5,M,,*61
$GPGGA,122247.999,5554.00976,N,03732.51662,E,1,20,00.6,198.8,M,14.5,M,,*63
$GPGGA,122248.999,5554.00976,N,03732.51662,E,1,20,00.6,198.8,M,14.5,M,,*6C
$GPGGA,122249.999,5554.00976,N,03732.51663,E,1,20,00.6,198.8,M,14.5,M,,*6C
$GPGGA,122250.999,5554.00976,N,03732.51664,E,1,20,00.6,198.8,M,14.5,M,,*63
$GPGGA,122251.999,5554.00976,N,03732.51664,E,1,20,00.6,198.8,M,14.5,M,,*62
$GPGGA,122252.999,5554.00976,N,03732.51664,E,1,20,00.6,198.8,M,14.5,M,,*61
$GPGGA,122253.999,5554.00977,N,03732.51664,E,1,20,00.6,198.8,M,14.5,M,,*61
$GPGGA,122254.999,5554.00977,N,03732.51664,E,1,20,00.6,198.8,M,14.5,M,,*66
$GPGGA,122255.999,5554.00977,N,03732.51664,E,1,20,00.6,198.9,M,14.5,M,,*66
$GPGGA,122256.999,5554.00978,N,03732.51662,E,1,20,00.6,198.9,M,14.5,M,,*6C
$GPGGA,122257.999,5554.00978,N,03732.51662,E,1,20,00.6,198.9,M,14.5,M,,*6D
$GPGGA,122258.999,5554.00978,N,03732.51661,E,1,20,00.6,198.9,M,14.5,M,,*61
$GPGGA,122259.999,5554.00979,N,03732.51660,E,1,20,00.6,198.9,M,14.5,M,,*60
$GPGGA,122300.999,5554.00979,N,03732.51659,E,1,20,00.6,199.0,M,14.5,M,,*6F
$GPGGA,122301.999,5554.00979,N,03732.51658,E,1,20,00.6,199.0,M,14.5,M,,*6F
$GPGGA,122302.999,5554.00979,N,03732.51658,E,1,20,00.6,199.0,M,14.5,M,,*6C
$GPGGA,122303.999,5554.00980,N,03732.51658,E,1,20,00.6,199.0,M,14.5,M,,*6B
$GPGGA,122304.999,5554.00979,N,03732.51658,E,1,20,00.6,199.0,M,14.5,M,,*6A
$GPGGA,122305.999,5554.00980,N,03732.51658,E,1,20,00.6,199.0,M,14.5,M,,*6D
$GPGGA,122306.999,5554.00980,N,03732.51658,E,1,20,00.6,199.1,M,14.5,M,,*6F
$GPGGA,122307.999,5554.00980,N,03732.51657,E,1,20,00.6,199.1,M,14.5,M,,*61
$GPGGA,122308.999,5554.00980,N,03732.51657,E,1,20,00.6,199.1,M,14.5,M,,*6E
$GPGGA,122309.999,5554.00980,N,03732.51656,E,1,20,00.6,199.1,M,14.5,M,,*6E
$GPGGA,122310.999,5554.00981,N,03732.51655,E,1,20,00.6,199.1,M,14.5,M,,*64
$GPGGA,122311.999,5554.00981,N,03732.51655,E,1,20,00.6,199.1,M,14.5,M,,*65
$GPGGA,122312.999,5554.00982,N,03732.51655,E,1,20,00.6,199.1,M,14.5,M,,*65
$GPGGA,122313.999,5554.00982,N,03732.51655,E,1,20,00.6,199.2,M,14.5,M,,*67
$GPGGA,122314.999,5554.00982,N,03732.51656,E,1,20,00.6,199.2,M,14.5,M,,*63
$GPGGA,122315.999,5554.00982,N,03732.51656,E,1,20,00.6,199.2,M,14.5,M,,*62
$GPGGA,122316.999,5554.00983,N,03732.51656,E,1,20,00.6,199.2,M,14.5,M,,*60
$GPGGA,122317.999,5554.00983,N,03732.51656,E,1,20,00.6,199.2,M,14.5,M,,*61
$GPGGA,122318.999,5554.00984,N,03732.51656,E,1,20,00.6,199.2,M,14.5,M,,*69
$GPGGA,122319.999,5554.00983,N,03732.51657,E,1,20,00.6,199.2,M,14.5,M,,*6E
$GPGGA,122320.999,5554.00983,N,03732.51657,E,1,20,00.6,199.2,M,14.5,M,,*64
$GPGGA,122321.999,5554.00983,N,03732.51658,E,1,20,00.6,199.2,M,14.5,M,,*6A
$GPGGA,122322.999,5554.00983,N,03732.51658,E,1,20,00.6,199.2,M,14.5,M,,*69
$GPGGA,122323.999,5554.00983,N,03732.51658,E,1,20,00.6,199.2,M,14.5,M,,*68
$GPGGA,122324.999,5554.00983,N,03732.51658,E,1,20,00.6,199.1,M,14.5,M,,*6C
$GPGGA,122325.999,5554.00983,N,03732.51659,E,1,20,00.6,199.1,M,14.5,M,,*6C
$GPGGA,122326.999,5554.00983,N,03732.51658,E,1,20,00.6,199.1,M,14.5,M,,*6E
$GPGGA,122327.999,5554.00983,N,03732.51658,E,1,20,00.6,199.1,M,14.5,M,,*6F
$GPGGA,122328.999,5554.00982,N,03732.51657,E,1,20,00.6,199.1,M,14.5,M,,*6E
$GPGGA,122329.999,5554.00983,N,03732.51657,E,1,20,00.6,199.1,M,14.5,M,,*6E
$GPGGA,122330.999,5554.00983,N,03732.51657,E,1,20,00.6,199.1,M,14.5,M,,*66
$GPGGA,122331.999,5554.00983,N,03732.51656,E,1,20,00.6,199.1,M,14.5,M,,*66
$GPGGA,122332.999,5554.00983,N,03732.51655,E,1,20,00.6,199.1,M,14.5,M,,*66
$GPGGA,122333.999,5554.00984,N,03732.51655,E,1,20,00.6,199.1,M,14.5,M,,*60
$GPGGA,122334.999,5554.00984,N,03732.51655,E,1,20,00.6,199.1,M,14.5,M,,*67
$GPGGA,122335.999,5554.00984,N,03732.51655,E,1,20,00.6,199.1,M,14.5,M,,*66
$GPGGA,122336.999,5554.00984,N,03732.51654,E,1,20,00.6,199.1,M,14.5,M,,*64
$GPGGA,122337.999,5554.00984,N,03732.51654,E,1,20,00.6,199.1,M,14.5,M,,*65
$GPGGA,122338.999,5554.00984,N,03732.51653,E,1,20,00.6,199.1,M,14.5,M,,*6D
$GPGGA,122339.999,5554.00984,N,03732.51653,E,1,20,00.6,199.1,M,14.5,M,,*6C
$GPGGA,122340.999,5554.00984,N,03732.51653,E,1,20,00.6,199.1,M,14.5,M,,*62
$GPGGA,122341.999,5554.00984,N,03732.51652,E,1,20,00.6,199.1,M,14.5,M,,*62
$GPGGA,122342.999,5554.00984,N,03732.51651,E,1,20,00.6,199.1,M,14.5,M,,*62
$GPGGA,122343.999,5554.00983,N,03732.51650,E,1,20,00.6,199.1,M,14.5,M,,*65
$GPGGA,122344.999,5554.00983,N,03732.51650,E,1,20,00.6,199.1,M,14.5,M,,*62
$GPGGA,122345.999,5554.00983,N,03732.51649,E,1,20,00.6,199.1,M,14.5,M,,*6B
$GPGGA,122346.999,5554.00983,N,03732.51648,E,1,20,00.6,199.1,M,14.5,M,,*69
$GPGGA,122347.999,5554.00983,N,03732.51647,E,1,20,00.6,199.1,M,14.5,M,,*67
$GPGGA,122348.999,5554.00983,N,03732.51647,E,1,20,00.6,199.1,M,14.5,M,,*68
$GPGGA,122349.999,5554.00983,N,03732.51646,E,1,20,00.6,199.1,M,14.5,M,,*68
$GPGGA,122350.999,5554.00983,N,03732.51646,E,1,20,00.6,199.1,M,14.5,M,,*60
$GPGGA,122351.999,5554.00983,N,03732.51646,E,1,20,00.6,199.0,M,14.5,M,,*60
$GPGGA,122352.999,5554.00983,N,03732.51645,E,1,20,00.6,199.0,M,14.5,M,,*60
$GPGGA,122353.999,5554.00983,N,03732.51645,E,1,20,00.6,199.0,M,14.5,M,,*61
$GPGGA,122354.999,5554.00984,N,03732.51645,E,1,20,00.6,199.0,M,14.5,M,,*61
$GPGGA,122355.999,5554.00983,N,03732.51644,E,1,20,00.6,199.0,M,14.5,M,,*66
$GPGGA,122356.999,5554.00982,N,03732.51641,E,1,20,00.6,199.1,M,14.5,M,,*60
$GPGGA,122357.999,5554.00982,N,03732.51639,E,1,20,00.6,199.1,M,14.5,M,,*6E
$GPGGA,122358.999,5554.00981,N,03732.51637,E,1,20,00.6,199.2,M,14.5,M,,*6F
$GPGGA,122359.999,5554.00981,N,03732.51635,E,1,20,00.6,199.2,M,14.5,M,,*6C
$GPGGA,122400.999,5554.00980,N,03732.51633,E,1,20,00.6,199.2,M,14.5,M,,*60
$GPGGA,122401.999,5554.00980,N,03732.51631,E,1,20,00.6,199.2,M,14.5,M,,*63
$GPGGA,122402.999,5554.00980,N,03732.51630,E,1,20,00.6,199.2,M,14.5,M,,*61
$GPGGA,122403.999,5554.00980,N,03732.51628,E,1,20,00.6,199.3,M,14.5,M,,*68
$GPGGA,122404.999,5554.00981,N,03732.51626,E,1,20,00.6,199.3,M,14.5,M,,*60
$GPGGA,122405.999,5554.00981,N,03732.51625,E,1,20,00.6,199.3,M,14.5,M,,*62
$GPGGA,122406.999,5554.00981,N,03732.51623,E,1,20,00.6,199.3,M,14.5,M,,*67
$GPGGA,122407.999,5554.00981,N,03732.51623,E,1,20,00.6,199.3,M,14.5,M,,*66
$GPGGA,122408.999,5554.00981,N,03732.51621,E,1,20,00.6,199.3,M,14.5,M,,*6B
$GPGGA,122409.999,5554.00981,N,03732.51620,E,1,20,00.6,199.3,M,14.5,M,,*6B
$GPGGA,122410.999,5554.00981,N,03732.51618,E,1,20,00.6,199.3,M,14.5,M,,*68
$GPGGA,122411.999,5554.00981,N,03732.51618,E,1,20,00.6,199.3,M,14.5,M,,*69
$GPGGA,122412.999,5554.00981,N,03732.51617,E,1,20,00.6,199.3,M,14.5,M,,*65
$GPGGA,122413.999,5554.00982,N,03732.51615,E,1,20,00.6,199.4,M,14.5,M,,*62
$GPGGA,122414.999,5554.00982,N,03732.51615,E,1,20,00.6,199.4,M,14.5,M,,*65
$GPGGA,122415.999,5554.00983,N,03732.51613,E,1,20,00.6,199.4,M,14.5,M,,*63
$GPGGA,122416.999,5554.00983,N,03732.51613,E,1,20,00.6,199.4,M,14.5,M,,*60
$GPGGA,122417.999,5554.00984,N,03732.51612,E,1,20,00.6,199.4,M,14.5,M,,*67
$GPGGA,122418.999,5554.00984,N,03732.51612,E,1,20,00.6,199.4,M,14.5,M,,*68
$GPGGA,122419.999,5554.00985,N,03732.51611,E,1,20,00.6,199.4,M,14.5,M,,*6B
$GPGGA,122420.999,5554.00985,N,03732.51612,E,1,20,00.6,199.4,M,14.5,M,,*62
$GPGGA,122421.999,5554.00985,N,03732.51612,E,1,20,00.6,199.4,M,14.5,M,,*63
$GPGGA,122422.999,5554.00985,N,03732.51612,E,1,20,00.6,199.4,M,14.5,M,,*60
$GPGGA,122423.999,5554.00986,N,03732.51612,E,1,20,00.6,199.5,M,14.5,M,,*63
$GPGGA,122424.999,5554.00986,N,03732.51612,E,1,20,00.6,199.5,M,14.5,M,,*64
$GPGGA,122425.999,5554.00987,N,03732.51612,E,1,20,00.6,199.5,M,14.5,M,,*64
$GPGGA,122426.999,5554.00987,N,03732.51612,E,1,20,00.6,199.5,M,14.5,M,,*67
$GPGGA,122427.999,5554.00988,N,03732.51612,E,1,20,00.6,199.5,M,14.5,M,,*69
$GPGGA,122428.999,5554.00988,N,03732.51612,E,1,20,00.6,199.5,M,14.5,M,,*66
$GPGGA,122429.999,5554.00988,N,03732.51612,E,1,20,00.6,199.5,M,14.5,M,,*67
$GPGGA,122430.999,5554.00989,N,03732.51612,E,1,20,00.6,199.5,M,14.5,M,,*6E
$GPGGA,122431.999,5554.00989,N,03732.51612,E,1,20,00.6,199.5,M,14.5,M,,*6F
$GPGGA,122432.999,5554.00989,N,03732.51613,E,1,20,00.6,199.5,M,14.5,M,,*6D
$GPGGA,122433.999,5554.00989,N,03732.51612,E,1,20,00.6,199.5,M,14.5,M,,*6D
$GPGGA,122434.999,5554.00989,N,03732.51612,E,1,20,00.6,199.5,M,14.5,M,,*6A
$GPGGA,122435.999,5554.00990,N,03732.51613,E,1,20,00.6,199.5,M,14.5,M,,*62
$GPGGA,122436.999,5554.00990,N,03732.51612,E,1,20,00.6,199.5,M,14.5,M,,*60
$GPGGA,122437.999,5554.00991,N,03732.51613,E,1,20,00.6,199.6,M,14.5,M,,*62
$GPGGA,122438.999,5554.00992,N,03732.51613,E,1,20,00.6,199.6,M,14.5,M,,*6E
$GPGGA,122439.999,5554.00992,N,03732.51613,E,1,20,00.6,199.6,M,14.5,M,,*6F
$GPGGA,122440.999,5554.00993,N,03732.51613,E,1,20,00.6,199.6,M,14.5,M,,*60
$GPGGA,122441.999,5554.00993,N,03732.51613,E,1,20,00.6,199.6,M,14.5,M,,*61
$GPGGA,122442.999,5554.00994,N,03732.51613,E,1,20,00.6,199.6,M,14.5,M,,*65
$GPGGA,122443.999,5554.00995,N,03732.51612,E,1,20,00.6,199.6,M,14.5,M,,*64
$GPGGA,122444.999,5554.00995,N,03732.51612,E,1,20,00.6,199.6,M,14.5,M,,*63
